<?xml version="1.0" encoding="UTF-8"?>
<kml xmlns="http://earth.google.com/kml/2.2">
<Document>
  <name>Churches of Surat Thani diocese</name>
  <description><![CDATA[]]></description>
  <Style id="style6">
    <IconStyle>
      <Icon>
        <href>http://maps.google.com/mapfiles/ms/micons/blue-dot.png</href>
      </Icon>
    </IconStyle>
  </Style>
  <Style id="style8">
    <IconStyle>
      <Icon>
        <href>http://maps.google.com/mapfiles/ms/micons/blue-dot.png</href>
      </Icon>
    </IconStyle>
  </Style>
  <Style id="style1">
    <IconStyle>
      <Icon>
        <href>http://maps.google.com/mapfiles/ms/micons/blue-dot.png</href>
      </Icon>
    </IconStyle>
  </Style>
  <Style id="style5">
    <IconStyle>
      <Icon>
        <href>http://maps.google.com/mapfiles/ms/micons/blue-dot.png</href>
      </Icon>
    </IconStyle>
  </Style>
  <Style id="style2">
    <IconStyle>
      <Icon>
        <href>http://maps.google.com/mapfiles/ms/micons/blue-dot.png</href>
      </Icon>
    </IconStyle>
  </Style>
  <Style id="style4">
    <IconStyle>
      <Icon>
        <href>http://maps.google.com/mapfiles/ms/micons/blue-dot.png</href>
      </Icon>
    </IconStyle>
  </Style>
  <Style id="style7">
    <IconStyle>
      <Icon>
        <href>http://maps.google.com/mapfiles/ms/micons/blue-dot.png</href>
      </Icon>
    </IconStyle>
  </Style>
  <Style id="style3">
    <IconStyle>
      <Icon>
        <href>http://maps.google.com/mapfiles/ms/micons/blue-dot.png</href>
      </Icon>
    </IconStyle>
  </Style>
  <Placemark>
    <name>St. Raphael Cathedral</name>
    <description><![CDATA[อาสนวิหารอัครเทวดาราฟาเอล]]></description>
    <styleUrl>#style6</styleUrl>
    <Point>
      <coordinates>99.334335,9.150141,0.000000</coordinates>
    </Point>
  </Placemark>
  <Placemark>
    <name>St. Theresa, Hua Hin</name>
    <description><![CDATA[วัดนักบุญเทเรซา]]></description>
    <styleUrl>#style8</styleUrl>
    <Point>
      <coordinates>99.958977,12.560428,0.000000</coordinates>
    </Point>
  </Placemark>
  <Placemark>
    <name>St. Agnes, Ao Nang, Krabi</name>
    <description><![CDATA[<a href="http://www.saintagneskrabi.com">วัดนักบุญอักแนส  </a>
]]></description>
    <styleUrl>#style1</styleUrl>
    <Point>
      <coordinates>98.804031,8.054949,0.000000</coordinates>
    </Point>
  </Placemark>
  <Placemark>
    <name>St.Michael Chapel, Wat Pradu</name>
    <description><![CDATA[วัดอัครเทวดามีคาเอล]]></description>
    <styleUrl>#style5</styleUrl>
    <Point>
      <coordinates>99.311646,9.065525,0.000000</coordinates>
    </Point>
  </Placemark>
  <Placemark>
    <name>Chapel of the Sacret Heart, Patong</name>
    <description><![CDATA[น้อยพระหฤทัยศักดิ์สิทธิ์]]></description>
    <styleUrl>#style2</styleUrl>
    <Point>
      <coordinates>98.294991,7.889398,0.000000</coordinates>
    </Point>
  </Placemark>
  <Placemark>
    <name>Our Lady of the Assumption, Phuket</name>
    <description><![CDATA[วัดแม่พระรับเกียรติยกขึ้นสวรรค์]]></description>
    <styleUrl>#style4</styleUrl>
    <Point>
      <coordinates>98.388954,7.879058,0.000000</coordinates>
    </Point>
  </Placemark>
  <Placemark>
    <name>St. Anna, Nathon, Ko Samui</name>
    <description><![CDATA[วัดนักบุญอันนา]]></description>
    <styleUrl>#style7</styleUrl>
    <Point>
      <coordinates>99.936691,9.541029,0.000000</coordinates>
    </Point>
  </Placemark>
  <Placemark>
    <name>St. Mary nursery chapel, Samui</name>
    <description><![CDATA[วัดน้อยประจำสถานรับเลี้ยงเด็กมารีย์อุปถัมภ์]]></description>
    <styleUrl>#style3</styleUrl>
    <Point>
      <coordinates>100.044243,9.529612,0.000000</coordinates>
    </Point>
  </Placemark>
</Document>
</kml>
