<?xml version="1.0" encoding="UTF-8"?>
<kml xmlns="http://earth.google.com/kml/2.2">
<Document>
  <name>Phuket local and central government offices</name>
  <description><![CDATA[]]></description>
  <Style id="style3">
    <IconStyle>
      <Icon>
        <href>http://maps.google.com/mapfiles/ms/micons/blue-dot.png</href>
      </Icon>
    </IconStyle>
  </Style>
  <Style id="style5">
    <IconStyle>
      <Icon>
        <href>http://maps.google.com/mapfiles/ms/micons/blue-dot.png</href>
      </Icon>
    </IconStyle>
  </Style>
  <Style id="style1">
    <IconStyle>
      <Icon>
        <href>http://maps.google.com/mapfiles/ms/micons/blue-dot.png</href>
      </Icon>
    </IconStyle>
  </Style>
  <Style id="style7">
    <IconStyle>
      <Icon>
        <href>http://maps.google.com/mapfiles/ms/micons/blue-dot.png</href>
      </Icon>
    </IconStyle>
  </Style>
  <Style id="style6">
    <IconStyle>
      <Icon>
        <href>http://maps.google.com/mapfiles/ms/micons/blue-dot.png</href>
      </Icon>
    </IconStyle>
  </Style>
  <Style id="style4">
    <IconStyle>
      <Icon>
        <href>http://maps.google.com/mapfiles/ms/micons/blue-dot.png</href>
      </Icon>
    </IconStyle>
  </Style>
  <Style id="style2">
    <IconStyle>
      <Icon>
        <href>http://maps.google.com/mapfiles/ms/micons/blue-dot.png</href>
      </Icon>
    </IconStyle>
  </Style>
  <Style id="style8">
    <IconStyle>
      <Icon>
        <href>http://maps.google.com/mapfiles/ms/micons/blue-dot.png</href>
      </Icon>
    </IconStyle>
  </Style>
  <Placemark>
    <name>Phuket city</name>
    <description><![CDATA[Phuket city administration<br>เทศบาลนครภูเก็ต<br><a href="http://www.phuketcity.go.th">www.phuketcity.go.th</a>]]></description>
    <styleUrl>#style3</styleUrl>
    <Point>
      <coordinates>98.397423,7.888261,0.000000</coordinates>
    </Point>
  </Placemark>
  <Placemark>
    <name>Provincial Hall</name>
    <description><![CDATA[Provincial hall (Sala Klang)<br>ศาลากลางจังหวัดภูเก็ต<br><a href="http://www.phuket.go.th">www.phuket.go.th</a>]]></description>
    <styleUrl>#style5</styleUrl>
    <Point>
      <coordinates>98.398407,7.890036,0.000000</coordinates>
    </Point>
  </Placemark>
  <Placemark>
    <name>Mueang Phuket district</name>
    <description><![CDATA[Mueang Phuket district office<br>อำเภอเมืองภูเก็ต]]></description>
    <styleUrl>#style1</styleUrl>
    <Point>
      <coordinates>98.385094,7.889526,0.000000</coordinates>
    </Point>
  </Placemark>
  <Placemark>
    <name>Kathu district</name>
    <description><![CDATA[Kathu district office<br>อำเภอกะทู้]]></description>
    <styleUrl>#style7</styleUrl>
    <Point>
      <coordinates>98.333336,7.909016,0.000000</coordinates>
    </Point>
  </Placemark>
  <Placemark>
    <name>Thalang district</name>
    <description><![CDATA[Thalang district office<br>อำเภอถลาง]]></description>
    <styleUrl>#style6</styleUrl>
    <Point>
      <coordinates>98.334023,8.031630,0.000000</coordinates>
    </Point>
  </Placemark>
  <Placemark>
    <name>Provincial court</name>
    <description><![CDATA[Provincial court (San Changwat)<br>ศาลจังหวัด]]></description>
    <styleUrl>#style4</styleUrl>
    <Point>
      <coordinates>98.396797,7.890780,0.000000</coordinates>
    </Point>
  </Placemark>
  <Placemark>
    <name>TAO Choeng Thale</name>
    <description><![CDATA[TAO Choeng Thale<br>
องค์การบริหารส่วนตำบลเชิงทะเล<br><a href="http://www.chengtale-abt.org">www.chengtale-abt.org</a>]]></description>
    <styleUrl>#style2</styleUrl>
    <Point>
      <coordinates>98.302513,7.986568,0.000000</coordinates>
    </Point>
  </Placemark>
  <Placemark>
    <name>TAO Mai Khao</name>
    <description><![CDATA[TAO Mai Khao<br>องค์การบริหารส่วนตำบลไม้ขาว<br><a href="http://www.maikhaow.org">www.maikhaow.org</a>]]></description>
    <styleUrl>#style8</styleUrl>
    <Point>
      <coordinates>98.299248,8.181183,0.000000</coordinates>
    </Point>
  </Placemark>
</Document>
</kml>
